[
  {"id": "1261481", "name": "New Delhi", "state": "Delhi", "lat": 28.6139, "lon": 77.2090},
  {"id": "1275339", "name": "Mumbai", "state": "Maharashtra", "lat": 19.0760, "lon": 72.8777},
  {"id": "1277333", "name": "Bengaluru", "state": "Karnataka", "lat": 12.9716, "lon": 77.5946},
  {"id": "1269843", "name": "Chennai", "state": "Tamil Nadu", "lat": 13.0827, "lon": 80.2707},
  {"id": "1275004", "name": "Kolkata", "state": "West Bengal", "lat": 22.5726, "lon": 88.3639},
  {"id": "1264527", "name": "Hyderabad", "state": "Telangana", "lat": 17.3850, "lon": 78.4867},
  {"id": "1259229", "name": "Ahmedabad", "state": "Gujarat", "lat": 23.0225, "lon": 72.5714},
  {"id": "1269515", "name": "Pune", "state": "Maharashtra", "lat": 18.5204, "lon": 73.8567},
  {"id": "1255364", "name": "Surat", "state": "Gujarat", "lat": 21.1702, "lon": 72.8311},
  {"id": "1274746", "name": "Kanpur", "state": "Uttar Pradesh", "lat": 26.4499, "lon": 80.3319},
  {"id": "1279233", "name": "Lucknow", "state": "Uttar Pradesh", "lat": 26.8467, "lon": 80.9462},
  {"id": "1278710", "name": "Nagpur", "state": "Maharashtra", "lat": 21.1458, "lon": 79.0882},
  {"id": "1264733", "name": "Indore", "state": "Madhya Pradesh", "lat": 22.7196, "lon": 75.8577},
  {"id": "1262180", "name": "Bhopal", "state": "Madhya Pradesh", "lat": 23.2599, "lon": 77.4126},
  {"id": "1269514", "name": "Patna", "state": "Bihar", "lat": 25.5941, "lon": 85.1376},
  {"id": "1265863", "name": "Jaipur", "state": "Rajasthan", "lat": 26.9124, "lon": 75.7873},
  {"id": "1270583", "name": "Raipur", "state": "Chhattisgarh", "lat": 21.2514, "lon": 81.6296},
  {"id": "1264647", "name": "Kochi", "state": "Kerala", "lat": 9.9312, "lon": 76.2673},
  {"id": "1270770", "name": "Ranchi", "state": "Jharkhand", "lat": 23.3441, "lon": 85.3096},
  {"id": "1275362", "name": "Madurai", "state": "Tamil Nadu", "lat": 9.9252, "lon": 78.1198},
  {"id": "1263214", "name": "Coimbatore", "state": "Tamil Nadu", "lat": 11.0168, "lon": 76.9558},
  {"id": "1267765", "name": "Kozhikode", "state": "Kerala", "lat": 11.2588, "lon": 75.7804},
  {"id": "1277013", "name": "Thiruvananthapuram", "state": "Kerala", "lat": 8.5241, "lon": 76.9366},
  {"id": "1272513", "name": "Mysuru", "state": "Karnataka", "lat": 12.2958, "lon": 76.6394},
  {"id": "1253628", "name": "Vadodara", "state": "Gujarat", "lat": 22.3072, "lon": 73.1812},
  {"id": "1252881", "name": "Varanasi", "state": "Uttar Pradesh", "lat": 25.3176, "lon": 82.9739},
  {"id": "1269516", "name": "Agra", "state": "Uttar Pradesh", "lat": 27.1767, "lon": 78.0081},
  {"id": "1255634", "name": "Visakhapatnam", "state": "Andhra Pradesh", "lat": 17.6868, "lon": 83.2185},
  {"id": "1254187", "name": "Vijayawada", "state": "Andhra Pradesh", "lat": 16.5062, "lon": 80.6480},
  {"id": "1269934", "name": "Jodhpur", "state": "Rajasthan", "lat": 26.2389, "lon": 73.0243},
  {"id": "1264521", "name": "Guwahati", "state": "Assam", "lat": 26.1445, "lon": 91.7362},
  {"id": "1275841", "name": "Amritsar", "state": "Punjab", "lat": 31.6340, "lon": 74.8723},
  {"id": "1271308", "name": "Chandigarh", "state": "Chandigarh", "lat": 30.7333, "lon": 76.7794},
  {"id": "1273294", "name": "Jabalpur", "state": "Madhya Pradesh", "lat": 23.1815, "lon": 79.9864},
  {"id": "1260086", "name": "Udaipur", "state": "Rajasthan", "lat": 24.5854, "lon": 73.7125},
  {"id": "1269997", "name": "Nashik", "state": "Maharashtra", "lat": 19.9975, "lon": 73.7898},
  {"id": "1254710", "name": "Tiruchirappalli", "state": "Tamil Nadu", "lat": 10.7905, "lon": 78.7047},
  {"id": "1265873", "name": "Jalandhar", "state": "Punjab", "lat": 31.3260, "lon": 75.5762},
  {"id": "1276393", "name": "Dehradun", "state": "Uttarakhand", "lat": 30.3165, "lon": 78.0322},
  {"id": "1269655", "name": "Allahabad", "state": "Uttar Pradesh", "lat": 25.4358, "lon": 81.8463},
  {"id": "1278946", "name": "Gwalior", "state": "Madhya Pradesh", "lat": 26.2183, "lon": 78.1828},
  {"id": "1263898", "name": "Jamshedpur", "state": "Jharkhand", "lat": 22.8046, "lon": 86.2029},
  {"id": "1270583", "name": "Bhubaneswar", "state": "Odisha", "lat": 20.2961, "lon": 85.8245},
  {"id": "1273780", "name": "Cuttack", "state": "Odisha", "lat": 20.4625, "lon": 85.8828},
  {"id": "1271653", "name": "Aurangabad", "state": "Maharashtra", "lat": 19.8762, "lon": 75.3433},
  {"id": "1275330", "name": "Shillong", "state": "Meghalaya", "lat": 25.5788, "lon": 91.8933},
  {"id": "1269750", "name": "Kota", "state": "Rajasthan", "lat": 25.2138, "lon": 75.8648},
  {"id": "1258980", "name": "Rajkot", "state": "Gujarat", "lat": 22.3039, "lon": 70.8022},
  {"id": "1258161", "name": "Jamnagar", "state": "Gujarat", "lat": 22.4707, "lon": 70.0577}
]
